[
  {
    "id": 1,
    "nombre": "Las Americas Industrial Park",
    "municipio": "García",
    "desarrolladora": null,
    "lat": 25.7985,
    "lng": -100.5815,
    "hectareas": null,
    "ocupacion_pct": null,
    "tipo": "Industrial",
    "año_fundacion": 2012,
    "descripcion": "Parque industrial inaugurado en 2012, uno de los primeros desarrollos industriales importantes en García."
  },
  {
    "id": 2,
    "nombre": "Monterrey Technology Park",
    "municipio": "García",
    "desarrolladora": null,
    "lat": 25.8125,
    "lng": -100.5895,
    "hectareas": null,
    "ocupacion_pct": null,
    "tipo": "Tecnológico",
    "año_fundacion": null,
    "descripcion": "Parque tecnológico enfocado en empresas de tecnología y manufactura avanzada."
  },
  {
    "id": 3,
    "nombre": "Terra Park ADN",
    "municipio": "García",
    "desarrolladora": "Terra Regia",
    "lat": 25.8045,
    "lng": -100.5740,
    "hectareas": null,
    "ocupacion_pct": null,
    "tipo": "Industrial",
    "año_fundacion": null,
    "descripcion": "Desarrollo de Terra Regia, parte de su portafolio de más de 8,000 hectáreas en la ZMM."
  },
  {
    "id": 4,
    "nombre": "Terra Park Dominio",
    "municipio": "García",
    "desarrolladora": "Terra Regia",
    "lat": 25.7995,
    "lng": -100.5680,
    "hectareas": null,
    "ocupacion_pct": null,
    "tipo": "Industrial",
    "año_fundacion": null,
    "descripcion": "Parte del desarrollo Dominio Cumbres de Terra Regia en García."
  },
  {
    "id": 5,
    "nombre": "Terra Park García",
    "municipio": "García",
    "desarrolladora": "Terra Regia",
    "lat": 25.8015,
    "lng": -100.5720,
    "hectareas": null,
    "ocupacion_pct": null,
    "tipo": "Industrial",
    "año_fundacion": null,
    "descripcion": "Parque industrial de Terra Regia en García, zona poniente de la ZMM."
  },
  {
    "id": 6,
    "nombre": "Stiva García Industrial Park",
    "municipio": "García",
    "desarrolladora": "Stiva",
    "lat": 25.8095,
    "lng": -100.5650,
    "hectareas": null,
    "ocupacion_pct": null,
    "tipo": "Industrial",
    "año_fundacion": null,
    "descripcion": "Desarrollo de Stiva, una de las principales desarrolladoras de parques industriales en México."
  },
  {
    "id": 7,
    "nombre": "Pocket Park Norte",
    "municipio": "García",
    "desarrolladora": null,
    "lat": 25.8155,
    "lng": -100.5795,
    "hectareas": null,
    "ocupacion_pct": null,
    "tipo": "Industrial",
    "año_fundacion": null,
    "descripcion": "Parque industrial compacto en la zona norte de García."
  },
  {
    "id": 8,
    "nombre": "Pocket Park Poniente",
    "municipio": "García",
    "desarrolladora": null,
    "lat": 25.8025,
    "lng": -100.5920,
    "hectareas": null,
    "ocupacion_pct": null,
    "tipo": "Industrial",
    "año_fundacion": null,
    "descripcion": "Desarrollo industrial en la zona poniente de García, cerca de la carretera a Saltillo."
  },
  {
    "id": 9,
    "nombre": "FINSA Monterrey García",
    "municipio": "García",
    "desarrolladora": "FINSA",
    "lat": 25.8085,
    "lng": -100.5760,
    "hectareas": 45,
    "ocupacion_pct": null,
    "tipo": "Industrial",
    "año_fundacion": 2025,
    "descripcion": "Primer parque institucional sostenible de gran escala en García. Desarrollo en dos etapas iniciando con 45 hectáreas. Anunciado en septiembre 2025."
  }
]
